stop_id,stop_code,stop_name,stop_desc,stop_lat,stop_lon,zone_id,stop_url,location_type,platform_code
1_01,,元町東,,40.622204,141.210719,1_01,,0,
1_02,,元町東,,40.622164,141.210408,1_02,,0,
10_01,,稲吉,,40.614,141.238089,10_01,,0,
10_02,,稲吉,,40.613927,141.238208,10_02,,0,
102_01,,晴ヶ丘,,40.660424,141.345661,102_01,,0,
102_02,,晴ヶ丘,,40.660572,141.345948,102_02,,0,
103_01,,春日台,,40.663408,141.349726,103_01,,0,
103_02,,春日台,,40.663072,141.349071,103_02,,0,
104_01,,三沢駅,,40.668709,141.353882,104_01,,0,
104_02,,三沢駅,,40.668567,141.353941,104_02,,0,
105_01,,新町（三沢）,,40.6742671,141.3541992,105_01,,0,
105_02,,新町（三沢）,,40.673996,141.353226,105_02,,0,
106_01,,大町二丁目,,40.678991,141.360796,106_01,,0,
107_01,,中央三丁目,,40.680196,141.361685,107_01,,0,
108_01,,大通,,40.682733,141.363786,108_01,,0,
109_01,,アメリカ広場,,40.684698,141.365464,109_01,,0,
11_01,,観音寺前,,40.613961,141.242372,11_01,,0,
11_02,,観音寺前,,40.613858,141.242195,11_02,,0,
110_01,,三沢中央,,40.684858,141.36661,110_01,,0,
110_02,,三沢中央,,40.685993,141.366574,110_02,,0,
111_01,,市役所・公会堂前,,40.683351,141.369574,111_01,,0,
112_01,,中央四丁目,,40.678398,141.361536,112_01,,0,
112_02,,中央四丁目,,40.678259,141.360815,112_02,,0,
113_01,,上下水道庁舎前,,40.680049,141.365147,113_01,,0,
113_02,,上下水道庁舎前,,40.681235,141.366373,113_02,,0,
114_01,,桜町,,40.680683,141.370249,114_01,,0,
115_01,,高校通（三沢）,,40.679103,141.369013,115_01,,0,
118_01,,三高前,,40.605519,141.220655,118_01,,0,
118_02,,三高前,,40.604266,141.221777,118_02,,0,
118_03,,三高前,,40.604267,141.221799,118_03,,0,
119_01,,南小学校通,,40.60706,141.219447,119_01,,0,
119_02,,南小学校通,,40.606925,141.219744,119_02,,0,
12_01,,三本木営業所,,40.613817,141.249353,12_01,,0,
12_02,,三本木営業所,,40.613754,141.248578,12_02,,0,
120_01,,並木,,40.60824,141.218531,120_01,,0,
120_02,,並木,,40.608105,141.218821,120_02,,0,
122_02,,六戸高校前,,40.617383,141.328288,122_02,,0,
123_01,,吾郷,,40.60069,141.207263,123_01,,0,
123_02,,吾郷,,40.600959,141.207481,123_02,,0,
124_01,,東吾郷,,40.602412,141.21041,124_01,,0,
124_02,,東吾郷,,40.602312,141.210485,124_02,,0,
125_01,,南小学校前,,40.603359,141.212646,125_01,,0,
125_02,,南小学校前,,40.603307,141.212728,125_02,,0,
126_01,,西並木,,40.604566,141.215295,126_01,,0,
126_02,,西並木,,40.604496,141.215372,126_02,,0,
127_01,,三高通,,40.606504,141.218221,127_01,,0,
127_02,,三高通,,40.606613,141.218322,127_02,,0,
128_01,,西穂並,,40.608923,141.216337,128_01,,0,
128_02,,西穂並,,40.608909,141.216495,128_02,,0,
129_01,,市役所前（三沢）,,40.682913,141.367855,129_01,,0,
129_02,,市役所前（三沢）,,40.683427,141.368156,129_02,,0,
13_01,,青果市場前,,40.612677,141.258554,13_01,,0,
13_02,,青果市場前,,40.612448,141.259656,13_02,,0,
13_03,,青果市場前,,40.612373,141.258913,13_03,,0,
131_01,,農協前（三沢）,,40.691273,141.397891,131_01,,0,
131_02,,農協前（三沢）,,40.691407,141.397527,131_02,,0,
132_01,,西浜三沢,,40.691669,141.394401,132_01,,0,
132_02,,西浜三沢,,40.691736,141.394571,132_02,,0,
133_01,,三沢空港通,,40.692013,141.388452,133_01,,0,
133_02,,三沢空港通,,40.692094,141.388273,133_02,,0,
134_01,,岡三沢市営住宅前,,40.691337,141.383014,134_01,,0,
134_02,,岡三沢市営住宅前,,40.691413,141.382925,134_02,,0,
135_01,,岡三沢,,40.690272,141.377962,135_01,,0,
135_02,,岡三沢,,40.690408,141.378488,135_02,,0,
136_01,,岡三沢小学校前,,40.688892,141.373263,136_01,,0,
136_02,,岡三沢小学校前,,40.688711,141.372663,136_02,,0,
137_01,,三沢郵便局前,,40.68539,141.37085,137_01,,0,
137_02,,三沢郵便局前,,40.685525,141.371021,137_02,,0,
138_01,,馬門温泉,,40.87611,141.063802,138_01,,0,
139_01,,スキー場前,,40.875808,141.070527,139_01,,0,
139_02,,スキー場前,,40.875614,141.070917,139_02,,0,
14_01,,畜産農協前,,40.611923,141.264409,14_01,,0,
14_02,,畜産農協前,,40.611723,141.26524,14_02,,0,
140_01,,馬門温泉通,,40.877124,141.088017,140_01,,0,
140_02,,馬門温泉通,,40.877053,141.088097,140_02,,0,
141_01,,馬門温泉入口,,40.879085,141.090298,141_01,,0,
141_02,,馬門温泉入口,,40.878154,141.091134,141_02,,0,
142_01,,柴崎,,40.879903,141.09011,142_01,,0,
142_02,,柴崎,,40.879772,141.090235,142_02,,0,
143_01,,馬門温泉口,,40.878703,141.092381,143_01,,0,
143_02,,馬門温泉口,,40.878647,141.092362,143_02,,0,
144_01,,馬門小学校前,,40.875444,141.096809,144_01,,0,
144_02,,馬門小学校前,,40.875308,141.096844,144_02,,0,
145_01,,農協前（野辺地）,,40.873991,141.098561,145_01,,0,
145_02,,農協前（野辺地）,,40.873941,141.098529,145_02,,0,
146_01,,馬門,,40.872366,141.102639,146_01,,0,
146_02,,馬門,,40.872359,141.102327,146_02,,0,
147_01,,港湾前,,40.871286,141.108959,147_01,,0,
147_02,,港湾前,,40.871224,141.108954,147_02,,0,
148_01,,野辺地案内所,,40.870338,141.111506,148_01,,0,
15_01,,喜多美町入口,,40.610602,141.274724,15_01,,0,
15_02,,喜多美町入口,,40.610533,141.274687,15_02,,0,
151_01,,新町（野辺地）,,40.867246,141.124609,151_01,,0,
151_02,,新町（野辺地）,,40.867118,141.124898,151_02,,0,
152_01,,新町通,,40.86687,141.12705,152_01,,0,
152_02,,新町通,,40.866802,141.127054,152_02,,0,
153_01,,野辺地中央,,40.865382,141.127776,153_01,,0,
153_02,,野辺地中央,,40.865145,141.127715,153_02,,0,
154_01,,下町,,40.860035,141.126571,154_01,,0,
154_02,,下町,,40.862417,141.127132,154_02,,0,
155_01,,野辺地病院前,,40.856831,141.125808,155_01,,0,
155_02,,野辺地病院前,,40.856705,141.12571,155_02,,0,
156_01,,野辺地駅前,,40.855662,141.119948,156_01,,0,
157_01,,松ノ木平,,40.853782,141.125065,157_01,,0,
157_02,,松ノ木平,,40.853914,141.125033,157_02,,0,
158_01,,中屋敷入口,,40.848046,141.125653,158_01,,0,
158_02,,中屋敷入口,,40.847837,141.125641,158_02,,0,
16_01,,折茂,,40.607786,141.286574,16_01,,0,
16_02,,折茂,,40.60709,141.287771,16_02,,0,
17_01,,東折茂,,40.604221,141.295168,17_01,,0,
17_02,,東折茂,,40.604225,141.294889,17_02,,0,
171_03,,七戸町役場前,,40.745803,141.157453,171_03,,0,
171_04,,七戸町役場前,,40.745885,141.157447,171_04,,0,
172_01,,長下,,40.740338,141.158088,172_01,,0,
172_02,,長下,,40.742158,141.156974,172_02,,0,
173_01,,中野,,40.73522,141.162643,173_01,,0,
173_02,,中野,,40.737135,141.161826,173_02,,0,
174_01,,営農大学前,,40.7215468,141.1587981,174_01,,0,
174_02,,営農大学前,,40.721417,141.158565,174_02,,0,
175_01,,七戸町文化村前,,40.7173833,141.1568322,175_01,,0,
175_02,,七戸町文化村前,,40.714892,141.156561,175_02,,0,
176_01,,七戸十和田駅,,40.71964,141.153975,176_01,,0,
176_02,,七戸十和田駅,,40.719624,141.15384,176_02,,0,
178_01,,七戸東栄前,,40.710649,141.157051,178_01,,0,
178_02,,七戸東栄前,,40.710282,141.157049,178_02,,0,
179_01,,変電所前,,40.706047,141.157059,179_01,,0,
179_02,,変電所前,,40.70618,141.157002,179_02,,0,
179_03,,変電所前,,40.705072,141.156058,179_03,,0,
179_04,,変電所前,,40.706808,141.157587,179_04,,0,
18_01,,川原新田,,40.601757,141.302829,18_01,,0,
18_02,,川原新田,,40.601835,141.302174,18_02,,0,
180_01,,七戸案内所,,40.700699,141.159192,180_01,,0,
180_02,,七戸案内所,,40.700738,141.159081,180_02,,0,
181_01,,笊田川久保,,40.696341,141.161956,181_01,,0,
181_02,,笊田川久保,,40.696227,141.161155,181_02,,0,
181_03,,笊田川久保,,40.696341,141.161956,181_03,,0,
181_04,,笊田川久保,,40.696227,141.161155,181_04,,0,
182_01,,七戸病院前,,40.698,141.158004,182_01,,0,
182_02,,七戸病院前,,40.698141,141.157909,182_02,,0,
183_01,,七戸公民館,,40.69844,141.155324,183_01,,0,
183_02,,七戸公民館,,40.698499,141.155651,183_02,,0,
184_01,,七戸中央,,40.697313,141.153486,184_01,,0,
184_02,,七戸中央,,40.697081,141.15343,184_02,,0,
185_01,,小川町,,40.695879,141.154847,185_01,,0,
185_02,,小川町,,40.695884,141.154524,185_02,,0,
186_01,,川向,,40.693308,141.157914,186_01,,0,
186_02,,川向,,40.693552,141.157609,186_02,,0,
187_01,,七高前,,40.691501,141.158987,187_01,,0,
187_02,,七高前,,40.691434,141.158839,187_02,,0,
188_01,,川去,,40.684481,141.165287,188_01,,0,
188_02,,川去,,40.685079,141.164565,188_02,,0,
189_01,,北野,,40.675954,141.175542,189_01,,0,
189_02,,北野,,40.676483,141.17471,189_02,,0,
19_01,,六戸高屋敷,,40.600906,141.309684,19_01,,0,
19_02,,六戸高屋敷,,40.600816,141.309679,19_02,,0,
190_01,,池ノ平,,40.673227,141.18003,190_01,,0,
190_02,,池ノ平,,40.673054,141.180242,190_02,,0,
191_01,,洞内,,40.659342,141.191466,191_01,,0,
191_02,,洞内,,40.659176,141.193302,191_02,,0,
191_03,,洞内,,40.659332,141.191331,191_03,,0,
191_04,,洞内,,40.659159,141.193187,191_04,,0,
192_01,,南洞内,,40.654322,141.193977,192_01,,0,
192_02,,南洞内,,40.654408,141.193825,192_02,,0,
193_01,,真登地,,40.646566,141.197866,193_01,,0,
193_02,,真登地,,40.647709,141.197211,193_02,,0,
194_01,,北井戸頭,,40.642781,141.199631,194_01,,0,
194_02,,北井戸頭,,40.642556,141.199619,194_02,,0,
195_01,,井戸頭,,40.638253,141.201641,195_01,,0,
195_02,,井戸頭,,40.637969,141.201647,195_02,,0,
196_01,,土手山,,40.635555,141.202742,196_01,,0,
196_02,,土手山,,40.636037,141.202476,196_02,,0,
197_01,,七郷入口,,40.631082,141.204599,197_01,,0,
197_02,,七郷入口,,40.632599,141.203925,197_02,,0,
198_01,,元町,,40.625392,141.207049,198_01,,0,
198_02,,元町,,40.625395,141.20699,198_02,,0,
199_01,,十和田市現代美術館前,,40.613544,141.209232,199_01,,0,
199_02,,十和田市現代美術館前,,40.613737,141.209252,199_02,,0,
2_01,,十丁目,,40.62036,141.209321,2_01,,0,
2_02,,十丁目,,40.619145,141.209975,2_02,,0,
20_01,,六戸局前,,40.60395,141.322586,20_01,,0,
20_02,,六戸局前,,40.603864,141.322586,20_02,,0,
200_01,,市役所前（十和田）,,40.612831,141.207568,200_01,,0,
200_02,,市役所前（十和田）,,40.612894,141.207455,200_02,,0,
201_01,,中央病院,,40.611759,141.204428,201_01,,0,
202_01,,東五番町,,40.606353,141.224816,202_01,,0,
202_02,,東五番町,,40.606321,141.22489,202_02,,0,
203_01,,東十五番町,,40.608167,141.228799,203_01,,0,
203_02,,東十五番町,,40.608095,141.228832,203_02,,0,
204_01,,日の出町,,40.609594,141.231985,204_01,,0,
204_02,,日の出町,,40.609502,141.231973,204_02,,0,
205_01,,東池ノ平,,40.67338,141.182412,205_01,,0,
206_01,,西芋久保,,40.676204,141.188723,206_01,,0,
207_01,,芋久保,,40.678888,141.195239,207_01,,0,
208_01,,大沢田本村,,40.671843,141.206089,208_01,,0,
209_01,,大沢田入口,,40.667487,141.207203,209_01,,0,
209_03,,大沢田入口,,40.667435,141.207675,209_03,,0,
21_01,,六戸中央,,40.603844,141.325815,21_01,,0,
21_02,,六戸中央,,40.603754,141.326038,21_02,,0,
210_01,,洞内本村,,40.662865,141.198987,210_01,,0,
210_02,,洞内本村,,40.66287,141.198942,210_02,,0,
211_01,,法身塚通,,40.660737,141.196691,211_01,,0,
211_02,,法身塚通,,40.660759,141.196677,211_02,,0,
22_01,,犬落瀬,,40.603734,141.329063,22_01,,0,
22_02,,犬落瀬,,40.603677,141.328291,22_02,,0,
23_01,,高見,,40.603944,141.338928,23_01,,0,
23_02,,高見,,40.603809,141.338923,23_02,,0,
230_01,,七高入口,,40.691615,141.160412,230_01,,0,
230_02,,七高入口,,40.692247,141.16055,230_02,,0,
231_01,,駅通,,40.621903,141.208528,231_01,,0,
232_01,,東病院前,,40.626372,141.246888,232_01,,0,
233_01,,工場団地,,40.625565,141.243804,233_01,,0,
233_02,,工場団地,,40.625675,141.243874,233_02,,0,
234_01,,稲生団地,,40.627052,141.24287,234_01,,0,
234_02,,稲生団地,,40.627076,141.242962,234_02,,0,
235_01,,東中学校前,,40.627149,141.238134,235_01,,0,
235_02,,東中学校前,,40.627215,141.238123,235_02,,0,
236_01,,北里大学前,,40.624461,141.235049,236_01,,0,
236_02,,北里大学前,,40.624567,141.234979,236_02,,0,
237_01,,三木野公園前,,40.62223,141.229121,237_01,,0,
237_02,,三木野公園前,,40.622303,141.228993,237_02,,0,
238_01,,東十二番町,,40.620951,141.225801,238_01,,0,
238_02,,東十二番町,,40.621151,141.226064,238_02,,0,
239_01,,初田,,40.619941,141.223215,239_01,,0,
239_02,,初田,,40.620067,141.223097,239_02,,0,
24_01,,林,,40.602449,141.346514,24_01,,0,
24_02,,林,,40.602364,141.346519,24_02,,0,
240_01,,東十一番町,,40.622401,141.220485,240_01,,0,
240_02,,東十一番町,,40.622454,141.220576,240_02,,0,
241_01,,合同庁舎前,,40.610493,141.202369,241_01,,0,
241_02,,合同庁舎前,,40.610684,141.20224,241_02,,0,
242_01,,北園小学校前,,40.612383,141.199349,242_01,,0,
242_02,,北園小学校前,,40.612477,141.199488,242_02,,0,
243_01,,北園,,40.612513,141.19804,243_01,,0,
243_02,,北園,,40.612534,141.197418,243_02,,0,
244_01,,西北園,,40.612143,141.194923,244_01,,0,
244_02,,西北園,,40.612232,141.19487,244_02,,0,
245_01,,長根尻入口,,40.611377,141.188497,245_01,,0,
245_02,,長根尻入口,,40.61145,141.188438,245_02,,0,
246_01,,六郷,,40.61057,141.181909,246_01,,0,
246_02,,六郷,,40.610733,141.182247,246_02,,0,
247_01,,西小学校,,40.610232,141.178894,247_01,,0,
247_02,,西小学校,,40.610302,141.178626,247_02,,0,
248_01,,八郷,,40.608923,141.172157,248_01,,0,
248_02,,八郷,,40.609008,141.172125,248_02,,0,
249_01,,深持入口,,40.607831,141.16948,249_01,,0,
249_02,,深持入口,,40.607798,141.169179,249_02,,0,
25_01,,洗平,,40.603403,141.350854,25_01,,0,
25_02,,洗平,,40.603289,141.350854,25_02,,0,
250_01,,佐井幅,,40.605717,141.164915,250_01,,0,
250_02,,佐井幅,,40.605871,141.164995,250_02,,0,
251_01,,中掫,,40.596174,141.151193,251_01,,0,
251_02,,中掫,,40.596415,141.150833,251_02,,0,
252_01,,西高入口,,40.59193,141.148945,252_01,,0,
252_02,,西高入口,,40.591918,141.148811,252_02,,0,
253_01,,太田,,40.588956,141.150753,253_01,,0,
253_02,,太田,,40.588878,141.150533,253_02,,0,
254_01,,十和田西高前,,40.585124,141.153671,254_01,,0,
254_02,,十和田西高前,,40.585034,141.153549,254_02,,0,
255_01,,二ツ家,,40.581936,141.148347,255_01,,0,
255_02,,二ツ家,,40.58205,141.148325,255_02,,0,
256_01,,沢田,,40.580975,141.145571,256_01,,0,
256_02,,沢田,,40.581163,141.145555,256_02,,0,
257_01,,舘入口,,40.580506,141.140008,257_01,,0,
257_02,,舘入口,,40.580686,141.140035,257_02,,0,
258_01,,和野,,40.584711,141.136328,258_01,,0,
258_02,,和野,,40.584789,141.136532,258_02,,0,
259_01,,上沢田口,,40.587396,141.133935,259_01,,0,
259_02,,上沢田口,,40.587486,141.134155,259_02,,0,
259_03,,上沢田口,,40.587712,141.134547,259_03,,0,
259_04,,上沢田口,,40.587855,141.134375,259_04,,0,
26_01,,新敷,,40.605504,141.357547,26_01,,0,
26_02,,新敷,,40.605593,141.357886,26_02,,0,
260_01,,中野渡,,40.587808,141.131092,260_01,,0,
260_02,,中野渡,,40.587987,141.131044,260_02,,0,
261_01,,大堀平,,40.586702,141.125003,261_01,,0,
261_02,,大堀平,,40.586906,141.124987,261_02,,0,
262_01,,奥入瀬ろまんパーク入口,,40.58696,141.117686,262_01,,0,
262_02,,奥入瀬ろまんパーク入口,,40.58705,141.118432,262_02,,0,
263_01,,奥入瀬ろまんパーク,,40.585909,141.117847,263_01,,0,
264_01,,ＪＡ十和田湖支店前,,40.586895,141.114087,264_01,,0,
264_02,,ＪＡ十和田湖支店前,,40.58707,141.114082,264_02,,0,
265_01,,十和田市西コミュニティセンター前,,40.586968,141.108862,265_01,,0,
265_02,,十和田市西コミュニティセンター前,,40.587201,141.109184,265_02,,0,
266_01,,第一中学校,,40.57796,141.107988,266_01,,0,
267_01,,小沢口,,40.586705,141.106161,267_01,,0,
267_02,,小沢口,,40.58686,141.106397,267_02,,0,
268_01,,奥瀬下川目,,40.587364,141.10037,268_01,,0,
268_02,,奥瀬下川目,,40.587547,141.100429,268_02,,0,
269_01,,法奥小学校前,,40.586891,141.096964,269_01,,0,
27_01,,阿光坊,,40.605807,141.374006,27_01,,0,
27_02,,阿光坊,,40.605811,141.372649,27_02,,0,
270_01,,新川原,,40.588338,141.098026,270_01,,0,
270_02,,新川原,,40.588387,141.098117,270_02,,0,
271_01,,法量,,40.590966,141.095515,271_01,,0,
271_02,,法量,,40.590974,141.095655,271_02,,0,
272_01,,両泉寺,,40.587372,141.08741,272_01,,0,
272_02,,両泉寺,,40.587572,141.087361,272_02,,0,
273_01,,中川原,,40.579977,141.07917,273_01,,0,
273_02,,中川原,,40.580168,141.07917,273_02,,0,
274_01,,道交,,40.582263,141.063007,274_01,,0,
274_02,,道交,,40.582369,141.063205,274_02,,0,
275_01,,百目木橋南口,,40.585502,141.058249,275_01,,0,
275_02,,百目木橋南口,,40.585559,141.058485,275_02,,0,
276_01,,山口,,40.5841,141.076,276_01,,0,
276_02,,山口,,40.58425,141.075774,276_02,,0,
277_01,,漆畑入口,,40.583847,141.066242,277_01,,0,
277_02,,漆畑入口,,40.584019,141.066268,277_02,,0,
278_01,,冷水入口,,40.586154,141.059139,278_01,,0,
278_02,,冷水入口,,40.586035,141.059702,278_02,,0,
279_01,,百目木,,40.588574,141.057685,279_01,,0,
279_02,,百目木,,40.588623,141.057879,279_02,,0,
28_01,,下阿光坊,,40.605371,141.377155,28_01,,0,
28_02,,下阿光坊,,40.605448,141.376104,28_02,,0,
280_01,,立石,,40.59622,141.050545,280_01,,0,
280_02,,立石,,40.596281,141.050647,280_02,,0,
281_01,,十二里,,40.600631,141.046179,281_01,,0,
281_02,,十二里,,40.600659,141.046286,281_02,,0,
282_01,,夏間沢,,40.601466,141.03964,282_01,,0,
282_02,,夏間沢,,40.601657,141.039623,282_02,,0,
283_01,,片貝沢本村,,40.597706,141.032317,283_01,,0,
283_02,,片貝沢本村,,40.597877,141.032263,283_02,,0,
284_01,,片貝沢,,40.595009,141.028524,284_01,,0,
284_02,,片貝沢,,40.595119,141.028374,284_02,,0,
285_01,,渕沢,,40.591234,141.022892,285_01,,0,
285_02,,渕沢,,40.591315,141.022699,285_02,,0,
286_01,,焼山団地前,,40.580397,141.010076,286_01,,0,
286_02,,焼山団地前,,40.58058,141.010092,286_02,,0,
287_01,,桂月橋,,40.579733,141.002459,287_01,,0,
287_02,,桂月橋,,40.579936,141.002571,287_02,,0,
288_01,,奥入瀬渓流温泉,,40.579236,140.995394,288_01,,0,
288_02,,奥入瀬渓流温泉,,40.57937,140.99541,288_02,,0,
289_01,,蔦温泉入口,,40.577753,140.987642,289_01,,0,
289_02,,蔦温泉入口,,40.577846,140.987487,289_02,,0,
29_01,,下田中北,,40.60423,141.386908,29_01,,0,
29_02,,下田中北,,40.604148,141.387224,29_02,,0,
290_01,,焼山,,40.576045,140.98437,290_01,,0,
290_02,,焼山,,40.576224,140.984273,290_02,,0,
291_01,,渓流館前,,40.574794,140.979955,291_01,,0,
292_01,,町立体育館前,,40.712087,141.152491,292_01,,0,
293_01,,もみのき学園,,40.711054,141.150474,293_01,,0,
294_01,,蛇坂,,40.70399,141.149605,294_01,,0,
295_01,,七戸小学校,,40.704621,141.153306,295_01,,0,
296_01,,乙供,,40.780211,141.212749,296_01,,0,
296_02,,乙供,,40.780134,141.212798,296_02,,0,
297_01,,乙供元町,,40.777793,141.210443,297_01,,0,
297_02,,乙供元町,,40.777798,141.210287,297_02,,0,
298_01,,馬込,,40.772146,141.203651,298_01,,0,
298_02,,馬込,,40.772225,141.203614,298_02,,0,
299_01,,朝日団地,,40.769216,141.193958,299_01,,0,
299_02,,朝日団地,,40.769263,141.193877,299_02,,0,
3_01,,八丁目,,40.618157,141.210956,3_01,,0,
3_02,,八丁目,,40.616931,141.211703,3_02,,0,
30_01,,下田中学校前,,40.602245,141.386076,30_01,,0,
30_02,,下田中学校前,,40.602041,141.386173,30_02,,0,
300_01,,石沢,,40.761149,141.1852,300_01,,0,
300_02,,石沢,,40.761254,141.18516,300_02,,0,
301_01,,舟場向川久保,,40.760709,141.182478,301_01,,0,
301_02,,舟場向川久保,,40.760397,141.182424,301_02,,0,
302_01,,北一本木,,40.75652,141.183304,302_01,,0,
302_02,,北一本木,,40.756546,141.183186,302_02,,0,
303_01,,一本木,,40.753639,141.183781,303_01,,0,
303_02,,一本木,,40.753398,141.183717,303_02,,0,
304_01,,東天間,,40.74792,141.180869,304_01,,0,
304_02,,東天間,,40.747971,141.180783,304_02,,0,
305_01,,天間,,40.746954,141.178487,305_01,,0,
305_02,,天間,,40.747045,141.178481,305_02,,0,
306_01,,西天間,,40.747197,141.175424,306_01,,0,
306_02,,西天間,,40.747407,141.175434,306_02,,0,
307_01,,十字路,,40.741686,141.171282,307_01,,0,
307_02,,十字路,,40.741772,141.171175,307_02,,0,
308_01,,桜木,,40.742084,141.168595,308_01,,0,
308_02,,桜木,,40.742205,141.168581,308_02,,0,
309_01,,団地前,,40.742893,141.163531,309_01,,0,
309_02,,団地前,,40.742991,141.163724,309_02,,0,
31_01,,木内々,,40.598214,141.392296,31_01,,0,
31_02,,木内々,,40.598145,141.392259,31_02,,0,
310_01,,天間林小学校前,,40.746194,141.162227,310_01,,0,
310_02,,天間林小学校前,,40.746304,141.162227,310_02,,0,
311_01,,東榎林,,40.737996,141.2213,311_01,,0,
311_02,,東榎林,,40.738053,141.221273,311_02,,0,
312_01,,榎林,,40.738187,141.218044,312_01,,0,
312_02,,榎林,,40.738252,141.21806,312_02,,0,
313_01,,西榎林,,40.738573,141.211574,313_01,,0,
313_02,,西榎林,,40.738679,141.21247,313_02,,0,
314_01,,花松,,40.72617,141.205443,314_01,,0,
314_02,,花松,,40.726235,141.205416,314_02,,0,
315_01,,野崎,,40.722674,141.19914,315_01,,0,
315_02,,野崎,,40.722703,141.199054,315_02,,0,
316_01,,長沢,,40.717783,141.184312,316_01,,0,
316_02,,長沢,,40.717889,141.184409,316_02,,0,
317_01,,美土里荘前,,40.715869,141.174758,317_01,,0,
317_02,,美土里荘前,,40.715922,141.174683,317_02,,0,
318_01,,膝森,,40.713982,141.170349,318_01,,0,
318_02,,膝森,,40.714065,141.170322,318_02,,0,
319_01,,福祉センター入口,,40.712559,141.167248,319_01,,0,
319_02,,福祉センター入口,,40.712596,141.167136,319_02,,0,
32_01,,おいらせ町役場前,,40.59852,141.398047,32_01,,0,
32_02,,おいらせ町役場前,,40.5983,141.396127,32_02,,0,
320_01,,西高見,,40.605385,141.334538,320_01,,0,
321_01,,舘野公園前,,40.612045,141.33075,321_01,,0,
322_01,,大深内中学校前,,40.668963,141.21578,322_01,,0,
322_02,,大深内中学校前,,40.668918,141.215834,322_02,,0,
323_01,,立崎,,40.676109,141.230784,323_01,,0,
323_02,,立崎,,40.676056,141.230822,323_02,,0,
324_01,,牛鍵,,40.690174,141.239255,324_01,,0,
324_02,,牛鍵,,40.689991,141.239368,324_02,,0,
325_01,,早坂入口,,40.690728,141.241462,325_01,,0,
325_02,,早坂入口,,40.690614,141.24157,325_02,,0,
326_01,,大洞入口,,40.697101,141.237997,326_01,,0,
326_02,,大洞入口,,40.697223,141.238104,326_02,,0,
327_01,,新山,,40.710673,141.251298,327_01,,0,
327_02,,新山,,40.710603,141.251336,327_02,,0,
328_01,,北新山,,40.71371,141.254731,328_01,,0,
328_02,,北新山,,40.713624,141.254779,328_02,,0,
329_01,,上北小前,,40.720069,141.258561,329_01,,0,
329_02,,上北小前,,40.719776,141.258599,329_02,,0,
33_01,,下田診療所,,40.598031,141.401121,33_01,,0,
33_02,,下田診療所,,40.597957,141.401019,33_02,,0,
330_01,,上北屋内練習場前,,40.725899,141.254608,330_01,,0,
330_02,,上北屋内練習場前,,40.725838,141.254683,330_02,,0,
331_01,,東北町役場通,,40.728537,141.25619,331_01,,0,
331_02,,東北町役場通,,40.728525,141.256362,331_02,,0,
332_01,,病院通,,40.730025,141.259318,332_01,,0,
332_02,,病院通,,40.730009,141.259538,332_02,,0,
333_01,,上北町駅,,40.732724,141.264296,333_01,,0,
333_02,,上北町駅,,40.732651,141.264393,333_02,,0,
334_01,,上北駅通,,40.732095,141.268453,334_01,,0,
334_02,,上北駅通,,40.731809,141.267992,334_02,,0,
335_01,,旭町,,40.733642,141.271892,335_01,,0,
335_02,,旭町,,40.733565,141.271956,335_02,,0,
336_01,,小川原湖通,,40.735521,141.276055,336_01,,0,
336_02,,小川原湖通,,40.735448,141.276098,336_02,,0,
337_01,,湖畔桟橋前,,40.736789,141.279145,337_01,,0,
338_01,,下川向,,40.695663,141.157877,338_01,,0,
338_02,,下川向,,40.695723,141.157898,338_02,,0,
339_01,,小稲,,40.602264,141.223362,339_01,,0,
339_02,,小稲,,40.60223,141.223206,339_02,,0,
34_01,,下田駅前,,40.592234,141.407939,34_01,,0,
340_01,,十和田中入口,,40.59924,141.226354,340_01,,0,
340_02,,十和田中入口,,40.599252,141.226101,340_02,,0,
341_01,,北小林,,40.596836,141.230688,341_01,,0,
341_02,,北小林,,40.596888,141.230387,341_02,,0,
342_01,,南小林,,40.595276,141.23351,342_01,,0,
342_02,,南小林,,40.595541,141.232821,342_02,,0,
343_01,,小林,,40.594406,141.235147,343_01,,0,
343_02,,小林,,40.593907,141.235832,343_02,,0,
344_01,,藤坂小学校前,,40.593667,141.238418,344_01,,0,
344_02,,藤坂小学校前,,40.593601,141.238718,344_02,,0,
345_01,,相坂変電所前,,40.593597,141.240489,345_01,,0,
345_02,,相坂変電所前,,40.593516,141.240521,345_02,,0,
346_01,,相坂会館前,,40.593402,141.243208,346_01,,0,
346_02,,相坂会館前,,40.593328,141.24323,346_02,,0,
347_01,,農事試験場前,,40.594617,141.249367,347_01,,0,
347_02,,農事試験場前,,40.594527,141.24942,347_02,,0,
348_01,,大和入口,,40.594787,141.253412,348_01,,0,
348_02,,大和入口,,40.594693,141.253406,348_02,,0,
349_01,,大和,,40.598571,141.254433,349_01,,0,
349_02,,大和,,40.598384,141.254487,349_02,,0,
35_01,,あけぼの団地前,,40.601534,141.396835,35_01,,0,
35_02,,あけぼの団地前,,40.601774,141.396695,35_02,,0,
350_01,,大和北,,40.600392,141.254903,350_01,,0,
350_02,,大和北,,40.600408,141.255016,350_02,,0,
351_01,,イオンスーパーセンター十和田店,,40.60436,141.257853,351_01,,0,
352_01,,大和田養魚場前,,40.594562,141.26273,352_01,,0,
352_02,,大和田養魚場前,,40.594476,141.262751,352_02,,0,
353_01,,六日町入口,,40.594836,141.266855,353_01,,0,
353_02,,六日町入口,,40.594755,141.266887,353_02,,0,
354_01,,六日町,,40.596022,141.271254,354_01,,0,
354_02,,六日町,,40.595912,141.27135,354_02,,0,
355_01,,喜多美町,,40.598919,141.270841,355_01,,0,
355_02,,喜多美町,,40.598894,141.270991,355_02,,0,
356_01,,中村,,40.830998,141.283039,356_01,,0,
356_02,,中村,,40.831049,141.282953,356_02,,0,
357_01,,水喰,,40.83028,141.272734,357_01,,0,
357_02,,水喰,,40.83026,141.272675,357_02,,0,
358_01,,南水喰,,40.826754,141.272246,358_01,,0,
358_02,,南水喰,,40.82656,141.272026,358_02,,0,
359_01,,南野田頭,,40.820168,141.271452,359_01,,0,
359_02,,南野田頭,,40.820191,141.271329,359_02,,0,
36_01,,下田公園入口,,40.604543,141.399187,36_01,,0,
36_02,,下田公園入口,,40.604404,141.39908,36_02,,0,
360_01,,豊栄,,40.809556,141.27381,360_01,,0,
360_02,,豊栄,,40.810693,141.273716,360_02,,0,
361_01,,滝沢,,40.802578,141.277487,361_01,,0,
361_02,,滝沢,,40.802564,141.277374,361_02,,0,
362_01,,巴蘭,,40.796959,141.277696,362_01,,0,
362_02,,巴蘭,,40.796962,141.277589,362_02,,0,
363_01,,南巴蘭,,40.788145,141.276951,363_01,,0,
363_02,,南巴蘭,,40.788164,141.276833,363_02,,0,
364_01,,漆玉入口,,40.782798,141.2779,364_01,,0,
364_02,,漆玉入口,,40.782778,141.277728,364_02,,0,
365_01,,北甲地,,40.779612,141.278598,365_01,,0,
365_02,,北甲地,,40.779625,141.278415,365_02,,0,
366_01,,甲地,,40.774929,141.278088,366_01,,0,
366_02,,甲地,,40.775161,141.278104,366_02,,0,
366_03,,甲地,,40.775859,141.277509,366_03,,0,
366_04,,甲地,,40.77577,141.277482,366_04,,0,
367_01,,南甲地,,40.771376,141.274655,367_01,,0,
367_02,,南甲地,,40.77139,141.274542,367_02,,0,
368_01,,長久保入口,,40.765425,141.268824,368_01,,0,
368_02,,長久保入口,,40.765449,141.268711,368_02,,0,
369_01,,鳥口橋,,40.759233,141.260965,369_01,,0,
369_02,,鳥口橋,,40.759246,141.260801,369_02,,0,
37_01,,東下田,,40.602456,141.409819,37_01,,0,
37_02,,東下田,,40.602423,141.409283,37_02,,0,
370_01,,甲地入口,,40.741109,141.257998,370_01,,0,
370_02,,甲地入口,,40.741829,141.257612,370_02,,0,
371_01,,花向橋,,40.737548,141.262933,371_01,,0,
371_02,,花向橋,,40.737434,141.26289,371_02,,0,
372_01,,上北町駅南口,,40.731301,141.266131,372_01,,0,
372_02,,上北町駅南口,,40.73135,141.266056,372_02,,0,
373_01,,菩提寺,,40.70309,141.277576,373_01,,0,
373_02,,菩提寺,,40.70318,141.277436,373_02,,0,
374_01,,虫神,,40.682047,141.275644,374_01,,0,
374_02,,虫神,,40.682104,141.275483,374_02,,0,
375_01,,岡沼,,40.666226,141.287808,375_01,,0,
375_02,,岡沼,,40.666275,141.287856,375_02,,0,
376_01,,沖山,,40.657819,141.272329,376_01,,0,
376_02,,沖山,,40.657696,141.272297,376_02,,0,
377_01,,相坂,,40.590352,141.237915,377_01,,0,
377_02,,相坂,,40.59041,141.237793,377_02,,0,
378_01,,藤島,,40.583541,141.237557,378_01,,0,
378_02,,藤島,,40.579632,141.238992,378_02,,0,
379_01,,和島入口,,40.579187,141.239766,379_01,,0,
379_02,,和島入口,,40.579362,141.239349,379_02,,0,
38_01,,イオンモール下田前,,40.599739,141.417201,38_01,,0,
38_02,,イオンモール下田前,,40.59969,141.416224,38_02,,0,
38_03,,イオンモール下田前,,40.601127,141.415905,38_03,,0,
38_04,,イオンモール下田前,,40.601653,141.415589,38_04,,0,
380_01,,野月,,40.577984,141.241591,380_01,,0,
380_02,,野月,,40.577984,141.241452,380_02,,0,
381_01,,石倉,,40.55765,141.236255,381_01,,0,
381_02,,石倉,,40.557696,141.236201,381_02,,0,
382_01,,下米田,,40.549855,141.230966,382_01,,0,
382_02,,下米田,,40.549898,141.230884,382_02,,0,
383_01,,四和小・中学校,,40.547794,141.234735,383_01,,0,
384_01,,米田,,40.547061,141.229143,384_01,,0,
385_01,,北野（米田）,,40.550552,141.227021,385_01,,0,
385_02,,北野（米田）,,40.550582,141.22707,385_02,,0,
386_01,,万内,,40.556542,141.21578,386_01,,0,
386_02,,万内,,40.556468,141.215912,386_02,,0,
387_01,,下平,,40.556642,141.205145,387_01,,0,
387_02,,下平,,40.556659,141.205019,387_02,,0,
388_01,,清瀬,,40.552841,141.201723,388_01,,0,
388_02,,清瀬,,40.552898,141.201637,388_02,,0,
389_01,,大不動,,40.548272,141.196728,389_01,,0,
389_02,,大不動,,40.548276,141.196618,389_02,,0,
39_01,,百石高校前,,40.598993,141.430512,39_01,,0,
39_02,,百石高校前,,40.598638,141.430362,39_02,,0,
390_01,,川尻,,40.536034,141.194489,390_01,,0,
391_01,,杉ノ木,,40.543154,141.188031,391_01,,0,
391_02,,杉ノ木,,40.543242,141.188074,391_02,,0,
392_01,,明戸,,40.539661,141.183553,392_01,,0,
392_02,,明戸,,40.539711,141.183419,392_02,,0,
393_01,,あけぼの学園,,40.535062,141.169591,393_01,,0,
393_02,,あけぼの学園,,40.535129,141.169559,393_02,,0,
394_01,,平山,,40.534409,141.168581,394_01,,0,
394_02,,平山,,40.534426,141.168488,394_02,,0,
395_01,,柏木,,40.526966,141.158641,395_01,,0,
395_02,,柏木,,40.527002,141.158515,395_02,,0,
396_01,,笊畑,,40.522428,141.147983,396_01,,0,
396_02,,笊畑,,40.522502,141.147975,396_02,,0,
397_01,,長下入口,,40.516369,141.145597,397_01,,0,
397_02,,長下入口,,40.516463,141.14563,397_02,,0,
398_01,,森ノ越,,40.515009,141.138997,398_01,,0,
398_02,,森ノ越,,40.514956,141.138648,398_02,,0,
399_01,,コゲ畑,,40.511055,141.130235,399_01,,0,
4_01,,官庁街通,,40.616163,141.212539,4_01,,0,
4_02,,官庁街通,,40.615659,141.212716,4_02,,0,
40_01,,百石上明堂,,40.597265,141.430247,40_01,,0,
40_02,,百石上明堂,,40.597045,141.430054,40_02,,0,
400_01,,長下集会所前,,40.507943,141.13843,400_01,,0,
400_02,,長下集会所前,,40.507897,141.138386,400_02,,0,
401_01,,長下南口,,40.506345,141.14796,401_01,,0,
401_02,,長下南口,,40.506232,141.147924,401_02,,0,
402_01,,指久保,,40.503684,141.148486,402_01,,0,
402_02,,指久保,,40.503684,141.148379,402_02,,0,
403_01,,西吾郷,,40.597941,141.20334,403_01,,0,
403_02,,西吾郷,,40.598071,141.203394,403_02,,0,
404_01,,赤沼入口,,40.593939,141.18825,404_01,,0,
404_02,,赤沼入口,,40.594065,141.188159,404_02,,0,
405_01,,赤沼,,40.596081,141.183409,405_01,,0,
405_02,,赤沼,,40.596144,141.183443,405_02,,0,
406_01,,上川原,,40.59645,141.179454,406_01,,0,
406_02,,上川原,,40.596532,141.179521,406_02,,0,
407_01,,三日市川原,,40.592685,141.176434,407_01,,0,
407_02,,三日市川原,,40.592604,141.176208,407_02,,0,
408_01,,三日市,,40.589204,141.175016,408_01,,0,
408_02,,三日市,,40.58924,141.174941,408_02,,0,
409_01,,新屋敷,,40.58681,141.168715,409_01,,0,
409_02,,新屋敷,,40.58688,141.168675,409_02,,0,
41_01,,百石中央,,40.594461,141.430236,41_01,,0,
41_02,,百石中央,,40.594746,141.430075,41_02,,0,
410_01,,下洗,,40.584649,141.159314,410_01,,0,
410_02,,下洗,,40.58475,141.159336,410_02,,0,
411_01,,西高通,,40.583301,141.155188,411_01,,0,
411_02,,西高通,,40.583377,141.155066,411_02,,0,
412_01,,上笹橋,,40.779888,141.216279,412_01,,0,
412_02,,上笹橋,,40.779843,141.216199,412_02,,0,
413_01,,坂下町,,40.777126,141.215212,413_01,,0,
413_02,,坂下町,,40.77713,141.215083,413_02,,0,
414_01,,東北町支所前,,40.778872,141.217668,414_01,,0,
414_02,,東北町支所前,,40.778831,141.217803,414_02,,0,
415_01,,東北小学校前,,40.781088,141.224927,415_01,,0,
415_02,,東北小学校前,,40.780897,141.224867,415_02,,0,
416_01,,外蛯沢,,40.782002,141.226745,416_01,,0,
416_02,,外蛯沢,,40.782046,141.226997,416_02,,0,
417_01,,運動公園通,,40.780059,141.235232,417_01,,0,
417_02,,運動公園通,,40.77997,141.235291,417_02,,0,
418_01,,運動公園入口,,40.779507,141.238348,418_01,,0,
418_02,,運動公園入口,,40.77919,141.238933,418_02,,0,
419_01,,長崎,,40.779226,141.250129,419_01,,0,
419_02,,長崎,,40.77912,141.250129,419_02,,0,
42_01,,おいらせ病院前,,40.592924,141.43095,42_01,,0,
42_02,,おいらせ病院前,,40.592732,141.430907,42_02,,0,
420_01,,蒼前,,40.776849,141.274893,420_01,,0,
420_02,,蒼前,,40.776752,141.274958,420_02,,0,
421_01,,昭和,,40.745445,141.218124,421_01,,0,
421_02,,昭和,,40.745502,141.21821,421_02,,0,
422_01,,蛯沢中央,,40.78467,141.231364,422_01,,0,
422_02,,蛯沢中央,,40.784621,141.231434,422_02,,0,
423_01,,西保戸沢,,40.786809,141.246591,423_01,,0,
423_02,,西保戸沢,,40.786687,141.246644,423_02,,0,
424_01,,保戸沢,,40.788556,141.250839,424_01,,0,
424_02,,保戸沢,,40.788475,141.250936,424_02,,0,
425_01,,乙部,,40.802714,141.251901,425_01,,0,
425_02,,乙部,,40.80269,141.252062,425_02,,0,
426_01,,野田頭,,40.819737,141.269017,426_01,,0,
426_02,,野田頭,,40.819692,141.269119,426_02,,0,
427_01,,甲地小学校前,,40.773289,141.284506,427_01,,0,
427_02,,甲地小学校前,,40.773224,141.284335,427_02,,0,
428_01,,長久保東口,,40.770209,141.284402,428_01,,0,
428_02,,長久保東口,,40.770221,141.284311,428_02,,0,
429_01,,蓼内入口,,40.762699,141.286081,429_01,,0,
429_02,,蓼内入口,,40.762674,141.285974,429_02,,0,
43_01,,市川高屋敷,,40.590467,141.432275,43_01,,0,
43_02,,市川高屋敷,,40.590218,141.43221,43_02,,0,
430_01,,土橋,,40.764354,141.29255,430_01,,0,
430_02,,土橋,,40.764305,141.292663,430_02,,0,
431_01,,徳万舘,,40.765471,141.309813,431_01,,0,
431_02,,徳万舘,,40.765406,141.309781,431_02,,0,
432_01,,舟ヶ沢,,40.763376,141.318023,432_01,,0,
432_02,,舟ヶ沢,,40.763303,141.317862,432_02,,0,
433_01,,鶴ヶ崎,,40.754565,141.322822,433_01,,0,
434_01,,三沢案内所,,40.662759,141.330284,434_01,,0,
434_02,,三沢案内所,,40.66258,141.3303,434_02,,0,
435_01,,小松ヶ丘西口,,40.660269,141.331225,435_01,,0,
435_02,,小松ヶ丘西口,,40.660723,141.331603,435_02,,0,
436_01,,公園前,,40.659433,141.335079,436_01,,0,
437_01,,小松ヶ丘中央,,40.660252,141.337059,437_01,,0,
437_02,,小松ヶ丘中央,,40.661167,141.335922,437_02,,0,
438_01,,小松ヶ丘南,,40.658558,141.338835,438_01,,0,
438_02,,小松ヶ丘南,,40.658562,141.338641,438_02,,0,
439_01,,小松ヶ丘入口,,40.659645,141.343931,439_01,,0,
439_02,,小松ヶ丘入口,,40.659523,141.343941,439_02,,0,
44_01,,多賀台団地前,,40.58299,141.437768,44_01,,0,
44_02,,多賀台団地前,,40.584453,141.436218,44_02,,0,
440_01,,変電所前（三沢）,,40.680506,141.359155,440_01,,0,
440_02,,変電所前（三沢）,,40.680555,141.359246,440_02,,0,
441_01,,清水町,,40.685567,141.351108,441_01,,0,
441_02,,清水町,,40.685542,141.351221,441_02,,0,
442_01,,東駒沢,,40.689106,141.349429,442_01,,0,
442_02,,東駒沢,,40.689171,141.349376,442_02,,0,
443_01,,西駒沢,,40.69029,141.345492,443_01,,0,
443_02,,西駒沢,,40.690351,141.345551,443_02,,0,
444_01,,平畑,,40.694449,141.333658,444_01,,0,
444_02,,平畑,,40.69449,141.333706,444_02,,0,
445_01,,姉沼,,40.697427,141.324308,445_01,,0,
445_02,,姉沼,,40.697436,141.324426,445_02,,0,
446_01,,南小川原,,40.708629,141.302576,446_01,,0,
446_02,,南小川原,,40.708649,141.302678,446_02,,0,
447_01,,小川原駅,,40.711253,141.297743,447_01,,0,
447_02,,小川原駅,,40.711428,141.297588,447_02,,0,
448_01,,下沼崎,,40.719992,141.286574,448_01,,0,
448_02,,下沼崎,,40.720041,141.28666,448_02,,0,
449_01,,湖水口,,40.722467,141.280679,449_01,,0,
449_02,,湖水口,,40.72256,141.280722,449_02,,0,
45_01,,赤畑,,40.578376,141.440139,45_01,,0,
45_02,,赤畑,,40.577993,141.440364,45_02,,0,
450_01,,道の駅おがわら湖,,40.728196,141.274805,450_01,,0,
451_01,,下旭町,,40.732062,141.270841,451_01,,0,
451_02,,下旭町,,40.73205,141.270996,451_02,,0,
452_01,,東上野,,40.726967,141.252612,452_01,,0,
452_02,,東上野,,40.727081,141.251995,452_02,,0,
453_01,,上野,,40.726654,141.247253,453_01,,0,
453_02,,上野,,40.726711,141.247173,453_02,,0,
454_01,,上野保育園前,,40.725646,141.244684,454_01,,0,
454_02,,上野保育園前,,40.725699,141.244646,454_02,,0,
455_01,,西上野,,40.72293,141.239609,455_01,,0,
455_02,,西上野,,40.722966,141.239507,455_02,,0,
456_01,,堺ノ沢,,40.717344,141.234405,456_01,,0,
456_02,,堺ノ沢,,40.717421,141.234373,456_02,,0,
457_01,,才市田,,40.717063,141.22512,457_01,,0,
457_02,,才市田,,40.717092,141.224996,457_02,,0,
458_01,,東徳万才,,40.713536,141.218892,458_01,,0,
458_02,,東徳万才,,40.713597,141.218897,458_02,,0,
459_01,,徳万才,,40.713121,141.21673,459_01,,0,
459_02,,徳万才,,40.713166,141.216676,459_02,,0,
46_01,,尻引,,40.575294,141.440584,46_01,,0,
46_02,,尻引,,40.575274,141.440348,46_02,,0,
460_01,,東大浦,,40.711698,141.212025,460_01,,0,
460_02,,東大浦,,40.71173,141.211939,460_02,,0,
461_01,,大浦,,40.70944,141.207406,461_01,,0,
461_02,,大浦,,40.709493,141.20739,461_02,,0,
462_01,,西大浦,,40.70889,141.204601,462_01,,0,
462_02,,西大浦,,40.708939,141.204569,462_02,,0,
463_01,,大浦入口,,40.707906,141.201227,463_01,,0,
463_02,,大浦入口,,40.707955,141.201184,463_02,,0,
464_01,,赤平,,40.703335,141.191512,464_01,,0,
464_02,,赤平,,40.703335,141.19142,464_02,,0,
465_01,,八幡（東北町）,,40.700757,141.189269,465_01,,0,
465_02,,八幡（東北町）,,40.700789,141.189216,465_02,,0,
466_01,,戸舘,,40.6982339,141.1858011,466_01,,0,
466_02,,戸舘,,40.69825,141.185589,466_02,,0,
467_01,,新舘,,40.699329,141.177398,467_01,,0,
467_02,,新舘,,40.699329,141.177521,467_02,,0,
468_01,,あすなろ温泉前,,40.697538,141.164899,468_01,,0,
468_02,,あすなろ温泉前,,40.698315,141.165773,468_02,,0,
469_01,,笊田,,40.696756,141.163311,469_01,,0,
469_02,,笊田,,40.696829,141.163241,469_02,,0,
47_01,,陸奥市川駅通,,40.565312,141.441689,47_01,,0,
47_02,,陸奥市川駅通,,40.565193,141.441807,47_02,,0,
470_01,,公園通,,40.66183,141.333433,470_01,,0,
471_01,,幸町一丁目,,40.687608,141.368918,471_01,,0,
471_02,,幸町一丁目,,40.687657,141.369428,471_02,,0,
472_01,,浜三沢,,40.692282,141.405058,472_01,,0,
472_02,,浜三沢,,40.691871,141.40317,472_02,,0,
473_01,,東浜三沢,,40.692855,141.409817,473_01,,0,
473_02,,東浜三沢,,40.692859,141.409715,473_02,,0,
474_01,,二中前,,40.685113,141.411742,474_01,,0,
474_02,,二中前,,40.685044,141.411962,474_02,,0,
475_01,,大津三丁目,,40.685418,141.41472,475_01,,0,
475_02,,大津三丁目,,40.685309,141.414682,475_02,,0,
476_01,,大津四丁目,,40.685725,141.420325,476_01,,0,
476_02,,大津四丁目,,40.685582,141.420063,476_02,,0,
477_01,,鹿中,,40.686929,141.425051,477_01,,0,
477_02,,鹿中,,40.686783,141.424746,477_02,,0,
478_01,,南鹿中,,40.684239,141.426854,478_01,,0,
478_02,,南鹿中,,40.6843,141.426688,478_02,,0,
479_01,,三川目小学校前,,40.681102,141.42864,479_01,,0,
479_02,,三川目小学校前,,40.681082,141.428522,479_02,,0,
48_01,,前山,,40.562099,141.447477,48_01,,0,
48_02,,前山,,40.561418,141.447992,48_02,,0,
480_01,,三沢漁港入口,,40.676796,141.429992,480_01,,0,
480_02,,三沢漁港入口,,40.676812,141.429874,480_02,,0,
481_01,,三川目,,40.671827,141.4307,481_01,,0,
481_02,,三川目,,40.671737,141.430539,481_02,,0,
482_01,,北二川目,,40.663159,141.432932,482_01,,0,
482_02,,北二川目,,40.663843,141.432497,482_02,,0,
483_01,,二川目,,40.660414,141.434235,483_01,,0,
483_02,,二川目,,40.660707,141.433989,483_02,,0,
484_01,,二川目局前,,40.654455,141.438366,484_01,,0,
484_02,,二川目局前,,40.654834,141.437996,484_02,,0,
485_01,,南二川目,,40.651569,141.438114,485_01,,0,
485_02,,南二川目,,40.651381,141.438017,485_02,,0,
486_01,,甲洋小学校,,40.645139,141.439745,486_01,,0,
486_02,,甲洋小学校,,40.645122,141.439643,486_02,,0,
487_01,,北一川目,,40.642602,141.44107,487_01,,0,
487_02,,北一川目,,40.642708,141.440914,487_02,,0,
488_01,,一川目,,40.636036,141.44211,488_01,,0,
488_02,,一川目,,40.635845,141.441794,488_02,,0,
489_01,,南一川目,,40.630586,141.437229,489_01,,0,
489_02,,南一川目,,40.630842,141.437304,489_02,,0,
49_01,,桔梗野小学校通,,40.560521,141.44906,49_01,,0,
49_02,,桔梗野小学校通,,40.560443,141.448979,49_02,,0,
490_01,,豊栄入口,,40.621379,141.430545,490_01,,0,
490_02,,豊栄入口,,40.62142,141.430432,490_02,,0,
491_01,,百石中学校前,,40.616457,141.428994,491_01,,0,
491_02,,百石中学校前,,40.6164,141.42886,491_02,,0,
492_01,,黒坂団地,,40.613603,141.429563,492_01,,0,
492_02,,黒坂団地,,40.613518,141.42952,492_02,,0,
493_01,,洋光台北口,,40.614337,141.435051,493_01,,0,
493_02,,洋光台北口,,40.614268,141.434976,493_02,,0,
494_01,,洋光台中央,,40.61283,141.43946,494_01,,0,
494_02,,洋光台中央,,40.612797,141.439337,494_02,,0,
495_01,,洋光台南口,,40.611277,141.442518,495_01,,0,
495_02,,洋光台南口,,40.611179,141.442421,495_02,,0,
496_01,,日ヶ久保,,40.60461,141.440345,496_01,,0,
496_02,,日ヶ久保,,40.604724,141.440227,496_02,,0,
497_01,,保健福祉センター,,40.603876,141.434107,497_01,,0,
497_02,,保健福祉センター,,40.603994,141.434391,497_02,,0,
498_01,,石田温泉病院前,,40.602794,141.429676,498_01,,0,
498_02,,石田温泉病院前,,40.60288,141.429525,498_02,,0,
499_01,,市立病院,,40.669429,141.390703,499_01,,0,
5_01,,十和田市中央,,40.613311,141.214756,5_01,,0,
5_02,,十和田市中央,,40.61358,141.214332,5_02,,0,
50_01,,桔梗野,,40.558609,141.450916,50_01,,0,
50_02,,桔梗野,,40.558894,141.45053,50_02,,0,
500_01,,泉町東,,40.666951,141.382844,500_01,,0,
500_02,,泉町東,,40.667203,141.381814,500_02,,0,
501_01,,雇用促進住宅前,,40.674035,141.37895,501_01,,0,
501_02,,雇用促進住宅前,,40.674043,141.379127,501_02,,0,
502_01,,木崎野小前,,40.674983,141.378617,502_01,,0,
502_02,,木崎野小前,,40.675101,141.37858,502_02,,0,
503_01,,松園公園前,,40.676781,141.372646,503_01,,0,
503_02,,松園公園前,,40.6767,141.372743,503_02,,0,
504_01,,Ｂバリ通り,,40.681667,141.374025,504_01,,0,
504_02,,Ｂバリ通り,,40.681541,141.374106,504_02,,0,
505_01,,淋代,,40.726201,141.414312,505_01,,0,
505_02,,淋代,,40.726213,141.414419,505_02,,0,
506_01,,淋代局前,,40.730356,141.412906,506_01,,0,
506_02,,淋代局前,,40.730365,141.413024,506_02,,0,
507_01,,淋代海岸,,40.735976,141.410806,507_01,,0,
507_02,,淋代海岸,,40.735927,141.410967,507_02,,0,
508_01,,細谷,,40.756849,141.406928,508_01,,0,
508_02,,細谷,,40.756865,141.407099,508_02,,0,
509_01,,南六川目,,40.764756,141.405538,509_01,,0,
509_02,,南六川目,,40.764797,141.405689,509_02,,0,
51_01,,陸上自衛隊前,,40.555856,141.449425,51_01,,0,
51_02,,陸上自衛隊前,,40.554799,141.448443,51_02,,0,
510_01,,六川目,,40.768213,141.40494,510_01,,0,
510_02,,六川目,,40.768213,141.405176,510_02,,0,
511_01,,北六川目,,40.773006,141.403771,511_01,,0,
511_02,,北六川目,,40.772985,141.404018,511_02,,0,
512_01,,はまなす団体活動センター前,,40.777673,141.402387,512_01,,0,
512_02,,はまなす団体活動センター前,,40.777689,141.402612,512_02,,0,
513_01,,新森入口,,40.782495,141.400552,513_01,,0,
513_02,,新森入口,,40.782702,141.40074,513_02,,0,
514_01,,新森一丁目,,40.782978,141.391122,514_01,,0,
515_01,,新森集会施設前,,40.783993,141.390896,515_01,,0,
516_01,,新森二丁目,,40.784371,141.38919,516_01,,0,
517_01,,織笠,,40.789381,141.399911,517_01,,0,
517_02,,織笠,,40.789397,141.400104,517_02,,0,
518_01,,北織笠,,40.793053,141.399632,518_01,,0,
518_02,,北織笠,,40.793037,141.399782,518_02,,0,
519_01,,南塩釜,,40.798145,141.398436,519_01,,0,
519_02,,南塩釜,,40.798137,141.398608,519_02,,0,
52_01,,松ヶ丘,,40.551237,141.451275,52_01,,0,
52_02,,松ヶ丘,,40.550646,141.451039,52_02,,0,
520_01,,塩釜,,40.80271,141.397642,520_01,,0,
520_02,,塩釜,,40.802824,141.39776,520_02,,0,
521_01,,砂森入口,,40.827368,141.390749,521_01,,0,
521_02,,砂森入口,,40.827303,141.390963,521_02,,0,
522_01,,天ヶ森入口,,40.845892,141.382316,522_01,,0,
522_02,,天ヶ森入口,,40.845973,141.382359,522_02,,0,
523_01,,公営住宅前,,40.845413,141.370756,523_01,,0,
523_02,,公営住宅前,,40.845502,141.370756,523_02,,0,
524_01,,南倉内,,40.845291,141.36714,524_01,,0,
524_02,,南倉内,,40.845405,141.367258,524_02,,0,
525_01,,倉内,,40.846988,141.362569,525_01,,0,
525_02,,倉内,,40.846988,141.362709,525_02,,0,
526_01,,北倉内,,40.849983,141.36243,526_01,,0,
526_02,,北倉内,,40.850007,141.362537,526_02,,0,
527_01,,南平沼,,40.865006,141.356282,527_01,,0,
527_02,,南平沼,,40.865014,141.356433,527_02,,0,
528_01,,平沼入口,,40.870781,141.359627,528_01,,0,
528_02,,平沼入口,,40.870761,141.35975,528_02,,0,
529_01,,平沼,,40.875544,141.367464,529_01,,0,
529_02,,平沼,,40.875536,141.367556,529_02,,0,
53_01,,西霊園入口,,40.544949,141.453094,53_01,,0,
53_02,,西霊園入口,,40.545267,141.452681,53_02,,0,
530_01,,北平沼,,40.8792,141.36814,530_01,,0,
530_02,,北平沼,,40.879195,141.36821,530_02,,0,
531_01,,追舘,,40.883471,141.369208,531_01,,0,
531_02,,追舘,,40.883443,141.369272,531_02,,0,
532_01,,八幡（三沢）,,40.80313,141.359941,532_01,,0,
532_02,,八幡（三沢）,,40.803122,141.35978,532_02,,0,
533_01,,越下,,40.80101,141.360552,533_01,,0,
533_02,,越下,,40.800961,141.360445,533_02,,0,
534_01,,富崎,,40.79837,141.361883,534_01,,0,
534_02,,富崎,,40.798322,141.361733,534_02,,0,
535_01,,谷地頭,,40.792312,141.364415,535_01,,0,
535_02,,谷地頭,,40.792295,141.364275,535_02,,0,
536_01,,斗南藩記念観光村,,40.785578,141.365917,536_01,,0,
536_02,,斗南藩記念観光村,,40.785569,141.365777,536_02,,0,
537_01,,南谷地頭,,40.780102,141.368012,537_01,,0,
537_02,,南谷地頭,,40.78009,141.367894,537_02,,0,
538_01,,高ノ沢,,40.773903,141.37038,538_01,,0,
538_02,,高ノ沢,,40.773878,141.370241,538_02,,0,
539_01,,朝日,,40.763899,141.37178,539_01,,0,
539_02,,朝日,,40.763899,141.371608,539_02,,0,
54_01,,高舘,,40.54353,141.455599,54_01,,0,
54_02,,高舘,,40.543436,141.455492,54_02,,0,
540_01,,根井,,40.756226,141.375514,540_01,,0,
540_02,,根井,,40.756193,141.375342,540_02,,0,
55_01,,見立山,,40.54344,141.460213,55_01,,0,
55_02,,見立山,,40.543334,141.460593,55_02,,0,
550_01,,古間木小学校前,,40.669937,141.347412,550_01,,0,
551_01,,ファミリーショップフルタ,,40.670209,141.342477,551_01,,0,
551_02,,ファミリーショップフルタ,,40.670332,141.343518,551_02,,0,
552_01,,春日台三丁目,,40.669782,141.340015,552_01,,0,
552_02,,春日台三丁目,,40.669868,141.340079,552_02,,0,
553_01,,小松ヶ丘通り,,40.6663,141.338202,553_01,,0,
553_02,,小松ヶ丘通り,,40.666226,141.338089,553_02,,0,
554_01,,小松ヶ丘四丁目,,40.662678,141.342464,554_01,,0,
554_02,,小松ヶ丘四丁目,,40.662613,141.342378,554_02,,0,
555_01,,新町二丁目（三沢）,,40.67378,141.352388,555_01,,0,
555_02,,新町二丁目（三沢）,,40.673756,141.352559,555_02,,0,
556_01,,三沢公園,,40.676946,141.354694,556_01,,0,
556_02,,三沢公園,,40.676856,141.354748,556_02,,0,
557_01,,滝の沢公園,,40.67885,141.356132,557_01,,0,
557_02,,滝の沢公園,,40.678842,141.356272,557_02,,0,
558_01,,サンマル通り,,40.675871,141.365549,558_01,,0,
558_02,,サンマル通り,,40.676054,141.36512,558_02,,0,
559_01,,ミス．ビードルドーム,,40.675016,141.361816,559_01,,0,
56_01,,高舘小学校前,,40.542718,141.464429,56_01,,0,
56_02,,高舘小学校前,,40.542257,141.464654,56_02,,0,
560_01,,工場団地通,,40.674756,141.371364,560_01,,0,
560_02,,工場団地通,,40.67465,141.371193,560_02,,0,
561_01,,日の出三丁目,,40.675172,141.386312,561_01,,0,
561_02,,日の出三丁目,,40.675147,141.386463,561_02,,0,
562_01,,深谷,,40.675961,141.392557,562_01,,0,
562_02,,深谷,,40.675847,141.392546,562_02,,0,
563_01,,さつきヶ丘団地,,40.673593,141.399348,563_01,,0,
563_02,,さつきヶ丘団地,,40.67356,141.399487,563_02,,0,
564_01,,国際交流センター前,,40.679314,141.400796,564_01,,0,
564_02,,国際交流センター前,,40.679338,141.400882,564_02,,0,
565_01,,老人ホーム前,,40.678134,141.410903,565_01,,0,
565_02,,老人ホーム前,,40.678044,141.410914,565_02,,0,
566_01,,大津四川目,,40.681023,141.413596,566_01,,0,
566_02,,大津四川目,,40.681039,141.413735,566_02,,0,
567_01,,三川目（みーばす専用）,,40.673789,141.429743,567_01,,0,
567_02,,三川目（みーばす専用）,,40.673887,141.429796,567_02,,0,
568_01,,大津南,,40.677598,141.4166,568_01,,0,
568_02,,大津南,,40.677703,141.4166,568_02,,0,
569_01,,前平入口,,40.674367,141.413016,569_01,,0,
569_02,,前平入口,,40.674473,141.412995,569_02,,0,
57_01,,小田,,40.537497,141.469257,57_01,,0,
57_02,,小田,,40.537872,141.468876,57_02,,0,
570_01,,前平一丁目,,40.672584,141.410184,570_01,,0,
570_02,,前平一丁目,,40.672601,141.410034,570_02,,0,
571_01,,前平南,,40.671168,141.408897,571_01,,0,
571_02,,前平南,,40.671266,141.408907,571_02,,0,
572_01,,大雄寺前,,40.670696,141.405614,572_01,,0,
572_02,,大雄寺前,,40.67081,141.405624,572_02,,0,
58_01,,河原木,,40.532969,141.47143,58_01,,0,
58_02,,河原木,,40.532663,141.470823,58_02,,0,
59_01,,下長,,40.528254,141.4663576,59_01,,0,
59_02,,下長,,40.528526,141.466366,59_02,,0,
594_01,,古間木交流センター,,40.674363,141.342131,594_01,,0,
594_02,,古間木交流センター,,40.674371,141.342002,594_02,,0,
596_01,,三沢駅東口,,40.67004,141.354348,596_01,,0,
597_01,,千代田町,,40.67048,141.360786,597_01,,0,
597_02,,千代田町,,40.670427,141.360716,597_02,,0,
598_01,,栄町（三沢）,,40.670846,141.364417,598_01,,0,
598_02,,栄町（三沢）,,40.670769,141.364439,598_02,,0,
599_01,,月光通り,,40.664648,141.378692,599_01,,0,
6_01,,三丁目,,40.612495,141.215399,6_01,,0,
6_02,,三丁目,,40.612343,141.215293,6_02,,0,
60_01,,千田,,40.524377,141.466549,60_01,,0,
60_02,,千田,,40.524234,141.46636,60_02,,0,
600_01,,泉町西,,40.666829,141.379143,600_01,,0,
601_01,,アイスアリーナ前,,40.679374,141.397714,601_01,,0,
601_02,,アイスアリーナ前,,40.67939,141.397822,601_02,,0,
601_03,,アイスアリーナ前,,40.679766,141.397996,601_03,,0,
601_04,,アイスアリーナ前,,40.67966,141.398018,601_04,,0,
602_01,,ウィング三沢前,,40.679443,141.3894,602_01,,0,
602_02,,ウィング三沢前,,40.679455,141.389518,602_02,,0,
603_01,,堀口中学校前,,40.683123,141.3851,603_01,,0,
603_02,,堀口中学校前,,40.683156,141.385143,603_02,,0,
604_01,,こがね公園,,40.684653,141.382203,604_01,,0,
604_02,,こがね公園,,40.684661,141.382332,604_02,,0,
605_01,,堀口三丁目,,40.687004,141.383405,605_01,,0,
605_02,,堀口三丁目,,40.686793,141.383147,605_02,,0,
606_01,,東岡三沢三丁目,,40.689885,141.387922,606_01,,0,
606_02,,東岡三沢三丁目,,40.689893,141.388061,606_02,,0,
607_01,,三沢空港温泉前,,40.693809,141.387471,607_01,,0,
607_02,,三沢空港温泉前,,40.693801,141.387621,607_02,,0,
608_01,,岡三沢七丁目,,40.692735,141.377075,608_01,,0,
608_02,,岡三沢七丁目,,40.692735,141.376935,608_02,,0,
609_01,,岡三沢二丁目,,40.68935,141.377204,609_01,,0,
609_02,,岡三沢二丁目,,40.689277,141.377086,609_02,,0,
61_01,,長苗代,,40.519701,141.467272,61_01,,0,
61_02,,長苗代,,40.519578,141.467149,61_02,,0,
610_01,,緑町（三沢）,,40.686035,141.37468,610_01,,0,
610_02,,緑町（三沢）,,40.686357,141.375377,610_02,,0,
62_01,,内舟渡,,40.517052,141.46768,62_01,,0,
62_02,,内舟渡,,40.516755,141.465979,62_02,,0,
624_01,,前平二丁目,,40.671393,141.413177,624_01,,0,
624_02,,前平二丁目,,40.671271,141.413252,624_02,,0,
625_01,,イオンモール下田,,40.602048,141.416613,625_01,,0,
628_01,,二本木,,40.866074,141.112805,628_01,,0,
628_02,,二本木,,40.866719,141.112231,628_02,,0,
629_01,,野辺地前平,,40.863149,141.115031,629_01,,0,
629_02,,野辺地前平,,40.863104,141.114918,629_02,,0,
63_01,,八戸駅,,40.508789,141.431781,63_01,,0,
63_02,,八戸駅,,40.508311,141.431647,63_02,,0,
630_01,,野辺地駅入口,,40.858076,141.117987,630_01,,0,
630_02,,野辺地駅入口,,40.858105,141.118089,630_02,,0,
631_01,,体育館前,,40.859874,141.118867,631_01,,0,
631_02,,体育館前,,40.859842,141.119001,631_02,,0,
632_01,,老人福祉センター前,,40.863339,141.121726,632_01,,0,
632_02,,老人福祉センター前,,40.863408,141.121678,632_02,,0,
633_01,,野辺地警察署前,,40.866882,141.122895,633_01,,0,
633_02,,野辺地警察署前,,40.86691,141.123062,633_02,,0,
635_01,,野辺地小学校前,,40.863275,141.130438,635_01,,0,
635_02,,野辺地小学校前,,40.863238,141.130561,635_02,,0,
636_01,,石神裏,,40.866606,141.13113,636_01,,0,
636_02,,石神裏,,40.866614,141.131274,636_02,,0,
637_01,,下袋中央,,40.868314,141.135384,637_01,,0,
637_02,,下袋中央,,40.868257,141.135416,637_02,,0,
638_01,,青少年ホーム前,,40.871168,141.140861,638_01,,0,
638_02,,青少年ホーム前,,40.871099,141.140941,638_02,,0,
639_01,,大月平,,40.876048,141.141032,639_01,,0,
639_02,,大月平,,40.875858,141.140737,639_02,,0,
64_01,,緑ヶ丘,,40.513208,141.473586,64_01,,0,
64_02,,緑ヶ丘,,40.513298,141.473345,64_02,,0,
640_01,,干草橋,,40.880345,141.151128,640_01,,0,
640_02,,干草橋,,40.880263,141.151214,640_02,,0,
641_01,,木明,,40.885273,141.160071,641_01,,0,
641_02,,木明,,40.885188,141.160006,641_02,,0,
642_01,,鳥井平,,40.885581,141.16735,642_01,,0,
642_02,,鳥井平,,40.885512,141.167409,642_02,,0,
643_01,,太田新田,,40.889909,141.197493,643_01,,0,
643_02,,太田新田,,40.889844,141.197466,643_02,,0,
644_01,,淋代入口,,40.884035,141.221348,644_01,,0,
644_02,,淋代入口,,40.883922,141.221295,644_02,,0,
645_01,,美須々入口,,40.88927,141.231758,645_01,,0,
645_02,,美須々入口,,40.889188,141.231796,645_02,,0,
646_01,,豊瀬,,40.889888,141.254324,646_01,,0,
646_02,,豊瀬,,40.889799,141.254227,646_02,,0,
647_01,,千歳中学校前,,40.885463,141.268824,647_01,,0,
647_02,,千歳中学校前,,40.885394,141.268759,647_02,,0,
648_01,,北千歳,,40.888635,141.270921,648_01,,0,
648_02,,北千歳,,40.888513,141.270937,648_02,,0,
649_01,,六ヶ所高校前,,40.888679,141.277734,649_01,,0,
649_02,,六ヶ所高校前,,40.888546,141.277793,649_02,,0,
65_01,,西売市,,40.512123,141.474482,65_01,,0,
65_02,,西売市,,40.510666,141.475485,65_02,,0,
650_01,,千歳小学校前,,40.888116,141.283957,650_01,,0,
650_02,,千歳小学校前,,40.888014,141.283849,650_02,,0,
651_01,,西千歳,,40.886672,141.284337,651_01,,0,
651_02,,西千歳,,40.88672,141.284112,651_02,,0,
652_01,,千歳,,40.881265,141.285008,652_01,,0,
652_02,,千歳,,40.881202,141.284968,652_02,,0,
653_01,,東千歳,,40.880437,141.287363,653_01,,0,
653_02,,東千歳,,40.880376,141.287325,653_02,,0,
654_01,,庄内,,40.878068,141.293902,654_01,,0,
654_02,,庄内,,40.877987,141.293854,654_02,,0,
655_01,,芋ヶ崎,,40.876336,141.31308,655_01,,0,
655_02,,芋ヶ崎,,40.876242,141.313091,655_02,,0,
656_01,,六原,,40.874388,141.321878,656_01,,0,
656_02,,六原,,40.874311,141.321813,656_02,,0,
657_01,,新城平,,40.869556,141.338293,657_01,,0,
657_02,,新城平,,40.869451,141.338287,657_02,,0,
658_01,,北新納屋,,40.920992,141.378183,658_01,,0,
658_02,,北新納屋,,40.92098,141.378279,658_02,,0,
659_01,,尾駮,,40.960839,141.372915,659_01,,0,
659_02,,尾駮,,40.960823,141.373076,659_02,,0,
66_01,,南売市,,40.509564,141.476633,66_01,,0,
66_02,,南売市,,40.50909,141.47688,66_02,,0,
660_01,,尾駮中央,,40.965057,141.374728,660_01,,0,
660_02,,尾駮中央,,40.965073,141.374599,660_02,,0,
661_01,,六ヶ所村役場前,,40.966771,141.374733,661_01,,0,
661_02,,六ヶ所村役場前,,40.966718,141.374846,661_02,,0,
662_01,,六ヶ所村医療センター,,40.969235,141.369377,662_01,,0,
67_01,,桜木町,,40.506903,141.480109,67_01,,0,
67_02,,桜木町,,40.50678,141.47997,67_02,,0,
68_01,,新荒町,,40.506286,141.483049,68_01,,0,
68_02,,新荒町,,40.505723,141.482051,68_02,,0,
69_01,,荒町,,40.506605,141.484567,69_01,,0,
697_01,,敦平団地前,,40.850639,141.122273,697_01,,0,
697_02,,敦平団地前,,40.849791,141.123094,697_02,,0,
698_01,,切明団地入口,,40.85352,141.11781,698_01,,0,
698_02,,切明団地入口,,40.853756,141.117568,698_02,,0,
699_01,,野辺地駅通,,40.854827,141.114822,699_01,,0,
699_02,,野辺地駅通,,40.854726,141.115294,699_02,,0,
7_01,,一丁目,,40.610563,141.216888,7_01,,0,
7_02,,一丁目,,40.610938,141.21637,7_02,,0,
70_01,,二十三日町,,40.508066,141.487678,70_01,,0,
700_01,,高校通（野辺地）,,40.853484,141.112177,700_01,,0,
700_02,,高校通（野辺地）,,40.853532,141.112102,700_02,,0,
701_01,,試験場通,,40.852477,141.110858,701_01,,0,
701_02,,試験場通,,40.852526,141.110804,701_02,,0,
702_01,,畜産試験場前,,40.851239,141.108234,702_01,,0,
708_03,,牧場通,,40.860341,141.128367,708_03,,0,
708_04,,牧場通,,40.860381,141.128254,708_04,,0,
71_01,,十三日町,,40.508886,141.48917,71_01,,0,
72_01,,八戸中心街ターミナル八日町２番,,40.510768,141.492576,72_01,,0,
73_01,,二十八日町,,40.512714,141.496117,73_01,,0,
74_01,,ＮＴＴ前,,40.51453,141.499384,74_01,,0,
75_01,,下組町,,40.516048,141.502141,75_01,,0,
76_01,,栄町（八戸）,,40.518206,141.504973,76_01,,0,
76_02,,栄町（八戸）,,40.517193,141.505762,76_02,,0,
77_01,,ラピア,,40.521026,141.503643,77_01,,0,
77_02,,ラピア,,40.521069,141.502967,77_02,,0,
78_01,,八戸営業所,,40.524595,141.513267,78_01,,0,
78_02,,八戸営業所,,40.524599,141.513342,78_02,,0,
79_01,,八戸市民病院,,40.494231,141.512805,79_01,,0,
8_01,,東四番町,,40.612171,141.221309,8_01,,0,
8_02,,東四番町,,40.612257,141.221252,8_02,,0,
80_01,,盲聾学校通,,40.516336,141.505574,80_01,,0,
81_01,,緑町（八戸）,,40.515756,141.503938,81_01,,0,
82_01,,柏崎新町,,40.514026,141.500569,82_01,,0,
83_01,,下大工町,,40.51163,141.496288,83_01,,0,
84_01,,八戸中心街ターミナル六日町５番,,40.509002,141.491578,84_01,,0,
85_01,,十六日町,,40.507888,141.48954,85_01,,0,
87_01,,ひがし野団地,,40.626819,141.224105,87_01,,0,
87_02,,ひがし野団地,,40.626726,141.224057,87_02,,0,
88_01,,工業高校,,40.627642,141.230225,88_01,,0,
88_02,,工業高校,,40.627171,141.227604,88_02,,0,
89_01,,北里大学通,,40.628462,141.235245,89_01,,0,
89_02,,北里大学通,,40.628544,141.235993,89_02,,0,
9_01,,中央モータースクール,,40.614126,141.230339,9_01,,0,
9_02,,中央モータースクール,,40.614041,141.231258,9_02,,0,
9_03,,中央モータースクール,,40.613064,141.23151,9_03,,0,
90_01,,藤高農場,,40.629727,141.242311,90_01,,0,
90_02,,藤高農場,,40.629652,141.242322,90_02,,0,
91_01,,高清水本村,,40.632929,141.252369,91_01,,0,
91_02,,高清水本村,,40.632876,141.252463,91_02,,0,
92_01,,高清水,,40.63488,141.258294,92_01,,0,
92_02,,高清水,,40.634899,141.258696,92_02,,0,
93_01,,三農校前,,40.636966,141.26705,93_01,,0,
93_02,,三農校前,,40.636794,141.266499,93_02,,0,
94_03,,古里,,40.639069,141.283734,94_03,,0,
94_04,,古里,,40.639069,141.283562,94_04,,0,
