stop_id,stop_code,stop_name,stop_desc,stop_lat,stop_lon,zone_id,stop_url,location_type,platform_code
1_01,,元町東,,40.622204,141.210719,1_01,,0,
1_02,,元町東,,40.622164,141.210408,1_02,,0,
10_01,,稲吉,,40.614,141.238089,10_01,,0,
10_02,,稲吉,,40.613927,141.238208,10_02,,0,
100_01,,大曲小学校前,,40.643341,141.336999,100_01,,0,
100_02,,大曲小学校前,,40.643219,141.336852,100_02,,0,
101_01,,大曲試験場,,40.649677,141.342984,101_01,,0,
101_02,,大曲試験場,,40.649618,141.34308,101_02,,0,
102_01,,晴ヶ丘,,40.660424,141.345661,102_01,,0,
102_02,,晴ヶ丘,,40.660572,141.345948,102_02,,0,
103_01,,春日台,,40.663408,141.349726,103_01,,0,
103_02,,春日台,,40.663072,141.349071,103_02,,0,
104_01,,三沢駅,,40.668709,141.353882,104_01,,0,
104_02,,三沢駅,,40.668567,141.353941,104_02,,0,
105_01,,新町（三沢）,,40.6742671,141.3541992,105_01,,0,
105_02,,新町（三沢）,,40.673996,141.353226,105_02,,0,
106_01,,大町二丁目,,40.678991,141.360796,106_01,,0,
107_01,,中央三丁目,,40.680196,141.361685,107_01,,0,
108_01,,大通,,40.682733,141.363786,108_01,,0,
109_01,,アメリカ広場,,40.684698,141.365464,109_01,,0,
11_01,,観音寺前,,40.613961,141.242372,11_01,,0,
11_02,,観音寺前,,40.613858,141.242195,11_02,,0,
110_01,,三沢中央,,40.684858,141.36661,110_01,,0,
111_01,,市役所・公会堂前,,40.683351,141.369574,111_01,,0,
111_02,,市役所・公会堂前,,40.683089,141.369688,111_02,,0,
112_01,,中央四丁目,,40.678398,141.361536,112_01,,0,
112_02,,中央四丁目,,40.678259,141.360815,112_02,,0,
113_01,,上下水道庁舎前,,40.680049,141.365147,113_01,,0,
113_02,,上下水道庁舎前,,40.681235,141.366373,113_02,,0,
114_01,,桜町,,40.680683,141.370249,114_01,,0,
115_01,,高校通（三沢）,,40.679103,141.369013,115_01,,0,
116_01,,三沢高校前,,40.678081,141.370907,116_01,,0,
117_01,,三高正門前,,40.603577,141.22054,117_01,,0,
118_01,,三高前,,40.605519,141.220655,118_01,,0,
118_02,,三高前,,40.604266,141.221777,118_02,,0,
119_01,,南小学校通,,40.60706,141.219447,119_01,,0,
119_02,,南小学校通,,40.606925,141.219744,119_02,,0,
12_02,,三本木営業所,,40.613754,141.248578,12_02,,0,
12_03,,三本木営業所,,40.614504,141.249073,12_03,,0,
120_01,,並木,,40.60824,141.218531,120_01,,0,
120_02,,並木,,40.608105,141.218821,120_02,,0,
121_01,,三沢商業高校入口,,40.6688208,141.3487887,121_01,,0,
122_01,,六戸高校前,,40.61771,141.328183,122_01,,0,
123_01,,吾郷,,40.60069,141.207263,123_01,,0,
124_01,,東吾郷,,40.602412,141.21041,124_01,,0,
125_01,,南小学校前,,40.603359,141.212646,125_01,,0,
126_01,,西並木,,40.604566,141.215295,126_01,,0,
127_01,,三高通,,40.606504,141.218221,127_01,,0,
128_01,,西穂並,,40.608923,141.216337,128_01,,0,
129_01,,市役所前（三沢）,,40.682913,141.367855,129_01,,0,
130_01,,三農校前（校舎前）,,40.639444,141.266345,130_01,,0,
131_01,,農協前（三沢）,,40.691273,141.397891,131_01,,0,
132_01,,西浜三沢,,40.691669,141.394401,132_01,,0,
133_01,,三沢空港通,,40.692013,141.388452,133_01,,0,
134_01,,岡三沢市営住宅前,,40.691337,141.383014,134_01,,0,
135_01,,岡三沢,,40.690272,141.377962,135_01,,0,
136_01,,岡三沢小学校前,,40.688892,141.373263,136_01,,0,
137_01,,三沢郵便局前,,40.68539,141.37085,137_01,,0,
138_01,,馬門温泉,,40.87611,141.063802,138_01,,0,
139_01,,スキー場前,,40.875808,141.070527,139_01,,0,
139_02,,スキー場前,,40.875614,141.070917,139_02,,0,
140_01,,馬門温泉通,,40.877124,141.088017,140_01,,0,
140_02,,馬門温泉通,,40.877053,141.088097,140_02,,0,
141_01,,馬門温泉入口,,40.879085,141.090298,141_01,,0,
141_02,,馬門温泉入口,,40.878154,141.091134,141_02,,0,
142_01,,柴崎,,40.879903,141.09011,142_01,,0,
142_02,,柴崎,,40.879772,141.090235,142_02,,0,
143_01,,馬門温泉口,,40.878703,141.092381,143_01,,0,
143_02,,馬門温泉口,,40.878647,141.092362,143_02,,0,
144_01,,馬門小学校前,,40.875444,141.096809,144_01,,0,
144_02,,馬門小学校前,,40.875308,141.096844,144_02,,0,
145_01,,農協前（野辺地）,,40.873991,141.098561,145_01,,0,
145_02,,農協前（野辺地）,,40.873941,141.098529,145_02,,0,
146_01,,馬門,,40.872366,141.102639,146_01,,0,
146_02,,馬門,,40.872359,141.102327,146_02,,0,
147_01,,港湾前,,40.871286,141.108959,147_01,,0,
147_02,,港湾前,,40.871224,141.108954,147_02,,0,
148_01,,野辺地案内所,,40.870338,141.111506,148_01,,0,
149_01,,馬門道,,40.869425,141.11486,149_01,,0,
149_02,,馬門道,,40.869227,141.116083,149_02,,0,
150_01,,裁判所前,,40.868728,141.120007,150_01,,0,
150_02,,裁判所前,,40.868592,141.120547,150_02,,0,
151_01,,新町（野辺地）,,40.867246,141.124609,151_01,,0,
151_02,,新町（野辺地）,,40.867118,141.124898,151_02,,0,
152_01,,新町通,,40.86687,141.12705,152_01,,0,
152_02,,新町通,,40.866802,141.127054,152_02,,0,
153_01,,野辺地中央,,40.865382,141.127776,153_01,,0,
153_02,,野辺地中央,,40.865145,141.127715,153_02,,0,
154_01,,下町,,40.860035,141.126571,154_01,,0,
154_02,,下町,,40.862417,141.127132,154_02,,0,
155_01,,野辺地病院前,,40.856831,141.125808,155_01,,0,
155_02,,野辺地病院前,,40.856705,141.12571,155_02,,0,
156_01,,野辺地駅前,,40.855662,141.119948,156_01,,0,
157_01,,松ノ木平,,40.853782,141.125065,157_01,,0,
157_02,,松ノ木平,,40.853914,141.125033,157_02,,0,
158_01,,中屋敷入口,,40.848046,141.125653,158_01,,0,
158_02,,中屋敷入口,,40.847837,141.125641,158_02,,0,
159_01,,清水目,,40.839081,141.127294,159_01,,0,
159_02,,清水目,,40.83819,141.127702,159_02,,0,
160_01,,石坂,,40.828854,141.127224,160_01,,0,
160_02,,石坂,,40.830744,141.128322,160_02,,0,
161_01,,ちびき病院,,40.823465,141.122207,161_01,,0,
162_01,,千曳,,40.809514,141.130101,162_01,,0,
162_02,,千曳,,40.80975,141.129647,162_02,,0,
163_02,,尾山入口,,40.804718,141.135609,163_02,,0,
164_01,,南平入口,,40.798796,141.147662,164_01,,0,
164_02,,南平入口,,40.798734,141.147551,164_02,,0,
165_02,,後平,,40.791058,141.147582,165_02,,0,
166_01,,上坪,,40.775783,141.145424,166_01,,0,
166_02,,上坪,,40.775598,141.145232,166_02,,0,
167_01,,坪,,40.769193,141.143962,167_01,,0,
167_02,,坪,,40.769839,141.144131,167_02,,0,
168_01,,黄金,,40.763222,141.145382,168_01,,0,
168_02,,黄金,,40.763469,141.14507,168_02,,0,
169_01,,小又入口,,40.755678,141.149805,169_01,,0,
169_02,,小又入口,,40.755442,141.149841,169_02,,0,
170_01,,道ノ上,,40.751006,141.152145,170_01,,0,
170_02,,道ノ上,,40.751178,141.151946,170_02,,0,
171_01,,七戸町役場前,,40.745967,141.154922,171_01,,0,
171_02,,七戸町役場前,,40.744706,141.155542,171_02,,0,
172_01,,長下,,40.740338,141.158088,172_01,,0,
172_02,,長下,,40.742158,141.156974,172_02,,0,
173_01,,中野,,40.73522,141.162643,173_01,,0,
173_02,,中野,,40.737135,141.161826,173_02,,0,
174_01,,営農大学前,,40.7215468,141.1587981,174_01,,0,
174_02,,営農大学前,,40.721417,141.158565,174_02,,0,
175_01,,七戸町文化村前,,40.7173833,141.1568322,175_01,,0,
175_02,,七戸町文化村前,,40.714892,141.156561,175_02,,0,
176_01,,七戸十和田駅,,40.71964,141.153975,176_01,,0,
176_02,,七戸十和田駅,,40.719624,141.15384,176_02,,0,
177_01,,道の駅しちのへ,,40.717156,141.155152,177_01,,0,
178_01,,七戸東栄前,,40.710649,141.157051,178_01,,0,
178_02,,七戸東栄前,,40.710282,141.157049,178_02,,0,
179_01,,変電所前,,40.706047,141.157059,179_01,,0,
179_02,,変電所前,,40.70618,141.157002,179_02,,0,
180_01,,七戸案内所,,40.700699,141.159192,180_01,,0,
180_02,,七戸案内所,,40.700738,141.159081,180_02,,0,
181_01,,笊田川久保,,40.696341,141.161956,181_01,,0,
181_02,,笊田川久保,,40.696227,141.161155,181_02,,0,
181_03,,笊田川久保,,40.696341,141.161956,181_03,,0,
181_04,,笊田川久保,,40.696227,141.161155,181_04,,0,
182_01,,七戸病院前,,40.698,141.158004,182_01,,0,
182_02,,七戸病院前,,40.698141,141.157909,182_02,,0,
183_01,,七戸公民館,,40.69844,141.155324,183_01,,0,
183_02,,七戸公民館,,40.698499,141.155651,183_02,,0,
184_01,,七戸中央,,40.697313,141.153486,184_01,,0,
184_02,,七戸中央,,40.697081,141.15343,184_02,,0,
185_01,,小川町,,40.695879,141.154847,185_01,,0,
185_02,,小川町,,40.695884,141.154524,185_02,,0,
186_01,,川向,,40.693308,141.157914,186_01,,0,
186_02,,川向,,40.693552,141.157609,186_02,,0,
187_01,,七高前,,40.691501,141.158987,187_01,,0,
187_02,,七高前,,40.691434,141.158839,187_02,,0,
188_01,,川去,,40.684481,141.165287,188_01,,0,
188_02,,川去,,40.685079,141.164565,188_02,,0,
189_01,,北野,,40.675954,141.175542,189_01,,0,
189_02,,北野,,40.676483,141.17471,189_02,,0,
190_01,,池ノ平,,40.673227,141.18003,190_01,,0,
190_02,,池ノ平,,40.673054,141.180242,190_02,,0,
191_01,,洞内,,40.659342,141.191466,191_01,,0,
191_02,,洞内,,40.659176,141.193302,191_02,,0,
192_01,,南洞内,,40.654322,141.193977,192_01,,0,
192_02,,南洞内,,40.654408,141.193825,192_02,,0,
193_01,,真登地,,40.646566,141.197866,193_01,,0,
193_02,,真登地,,40.647709,141.197211,193_02,,0,
194_01,,北井戸頭,,40.642781,141.199631,194_01,,0,
194_02,,北井戸頭,,40.642556,141.199619,194_02,,0,
195_01,,井戸頭,,40.638253,141.201641,195_01,,0,
195_02,,井戸頭,,40.637969,141.201647,195_02,,0,
196_01,,土手山,,40.635555,141.202742,196_01,,0,
196_02,,土手山,,40.636037,141.202476,196_02,,0,
197_01,,七郷入口,,40.631082,141.204599,197_01,,0,
197_02,,七郷入口,,40.632599,141.203925,197_02,,0,
198_01,,元町,,40.625392,141.207049,198_01,,0,
198_02,,元町,,40.625395,141.20699,198_02,,0,
199_01,,十和田市現代美術館前,,40.613544,141.209232,199_01,,0,
199_02,,十和田市現代美術館前,,40.613737,141.209252,199_02,,0,
2_01,,十丁目,,40.62036,141.209321,2_01,,0,
2_02,,十丁目,,40.619145,141.209975,2_02,,0,
200_01,,市役所前（十和田）,,40.612831,141.207568,200_01,,0,
200_02,,市役所前（十和田）,,40.612894,141.207455,200_02,,0,
201_01,,中央病院,,40.611759,141.204428,201_01,,0,
202_01,,東五番町,,40.606353,141.224816,202_01,,0,
202_02,,東五番町,,40.606321,141.22489,202_02,,0,
203_01,,東十五番町,,40.608167,141.228799,203_01,,0,
203_02,,東十五番町,,40.608095,141.228832,203_02,,0,
204_01,,日の出町,,40.609594,141.231985,204_01,,0,
204_02,,日の出町,,40.609502,141.231973,204_02,,0,
205_01,,東池ノ平,,40.67338,141.182412,205_01,,0,
205_02,,東池ノ平,,40.673272,141.182353,205_02,,0,
206_01,,西芋久保,,40.676204,141.188723,206_01,,0,
206_02,,西芋久保,,40.676867,141.189764,206_02,,0,
207_01,,芋久保,,40.678888,141.195239,207_01,,0,
207_02,,芋久保,,40.678919,141.194933,207_02,,0,
208_01,,大沢田本村,,40.671843,141.206089,208_01,,0,
208_02,,大沢田本村,,40.67201,141.206031,208_02,,0,
209_01,,大沢田入口,,40.667487,141.207203,209_01,,0,
209_02,,大沢田入口,,40.667321,141.207278,209_02,,0,
210_01,,洞内本村,,40.662865,141.198987,210_01,,0,
210_02,,洞内本村,,40.66287,141.198942,210_02,,0,
211_01,,法身塚通,,40.660737,141.196691,211_01,,0,
211_02,,法身塚通,,40.660759,141.196677,211_02,,0,
212_01,,新青森駅,,40.828196,140.694779,212_01,,0,
213_01,,新町二丁目（青森）,,40.825586,140.744584,213_01,,0,
213_02,,新町二丁目（青森）,,40.825772,140.744614,213_02,,0,
214_01,,県庁通,,40.826312,140.740597,214_01,,0,
214_02,,県庁通,,40.826209,140.742119,214_02,,0,
215_01,,青森駅前,,40.828182,140.734996,215_01,,0,
216_01,,市役所前（青森）,,40.823221,140.746798,216_01,,0,
216_02,,市役所前（青森）,,40.822979,140.747025,216_02,,0,
217_01,,ＮＴＴ青森支店前,,40.823586,140.751161,217_01,,0,
217_02,,ＮＴＴ青森支店前,,40.823294,140.75102,217_02,,0,
218_01,,文化会館前,,40.82394,140.755465,218_01,,0,
218_02,,文化会館前,,40.823638,140.755248,218_02,,0,
219_01,,堤橋,,40.824316,140.760732,219_01,,0,
219_02,,堤橋,,40.824044,140.760364,219_02,,0,
220_01,,栄町二丁目,,40.825344,140.769874,220_01,,0,
220_02,,栄町二丁目,,40.825143,140.770065,220_02,,0,
221_01,,岡造道一丁目,,40.827062,140.778439,221_01,,0,
221_02,,岡造道一丁目,,40.827686,140.782696,221_02,,0,
222_01,,南造道,,40.828182,140.789923,222_01,,0,
222_02,,南造道,,40.828096,140.789413,222_02,,0,
223_01,,県病通,,40.827125,140.7955,223_01,,0,
223_02,,県病通,,40.826951,140.795412,223_02,,0,
224_01,,八重田通り,,40.82672,140.798406,224_01,,0,
224_02,,八重田通り,,40.826548,140.798121,224_02,,0,
225_01,,東跨線橋,,40.828503,140.80868,225_01,,0,
225_02,,東跨線橋,,40.828285,140.808438,225_02,,0,
226_01,,後萢通,,40.829555,140.813483,226_01,,0,
226_02,,後萢通,,40.829426,140.813697,226_02,,0,
227_01,,農協通り,,40.830335,140.819224,227_01,,0,
227_02,,農協通り,,40.830207,140.819261,227_02,,0,
228_01,,諏訪沢入口,,40.828946,140.824055,228_01,,0,
228_02,,諏訪沢入口,,40.82882,140.823857,228_02,,0,
229_01,,滝沢入口,,40.826308,140.857315,229_01,,0,
229_02,,滝沢入口,,40.826095,140.857424,229_02,,0,
230_01,,七高入口,,40.691615,141.160412,230_01,,0,
230_02,,七高入口,,40.692247,141.16055,230_02,,0,
231_01,,駅通,,40.621903,141.208528,231_01,,0,
3_01,,八丁目,,40.618157,141.210956,3_01,,0,
3_02,,八丁目,,40.616931,141.211703,3_02,,0,
338_01,,下川向,,40.695663,141.157877,338_01,,0,
338_02,,下川向,,40.695723,141.157898,338_02,,0,
4_01,,官庁街通,,40.616163,141.212539,4_01,,0,
4_02,,官庁街通,,40.615659,141.212716,4_02,,0,
5_01,,十和田市中央,,40.613311,141.214756,5_01,,0,
5_02,,十和田市中央,,40.61358,141.214332,5_02,,0,
6_01,,三丁目,,40.612495,141.215399,6_01,,0,
6_02,,三丁目,,40.612343,141.215293,6_02,,0,
7_01,,一丁目,,40.610563,141.216888,7_01,,0,
7_02,,一丁目,,40.610938,141.21637,7_02,,0,
87_01,,ひがし野団地,,40.626819,141.224105,87_01,,0,
87_02,,ひがし野団地,,40.626726,141.224057,87_02,,0,
88_01,,工業高校,,40.627642,141.230225,88_01,,0,
88_02,,工業高校,,40.627171,141.227604,88_02,,0,
89_01,,北里大学通,,40.628462,141.235245,89_01,,0,
89_02,,北里大学通,,40.628544,141.235993,89_02,,0,
9_02,,中央モータースクール,,40.614041,141.231258,9_02,,0,
9_03,,中央モータースクール,,40.613064,141.23151,9_03,,0,
90_01,,藤高農場,,40.629727,141.242311,90_01,,0,
90_02,,藤高農場,,40.629652,141.242322,90_02,,0,
91_01,,高清水本村,,40.632929,141.252369,91_01,,0,
91_02,,高清水本村,,40.632876,141.252463,91_02,,0,
92_01,,高清水,,40.63488,141.258294,92_01,,0,
92_02,,高清水,,40.634899,141.258696,92_02,,0,
93_01,,三農校前,,40.636966,141.26705,93_01,,0,
93_02,,三農校前,,40.636794,141.266499,93_02,,0,
94_01,,古里,,40.638847,141.284277,94_01,,0,
94_02,,古里,,40.638755,141.284317,94_02,,0,
95_01,,堀切,,40.639922,141.295476,95_01,,0,
95_02,,堀切,,40.639853,141.295483,95_02,,0,
96_01,,七百,,40.640751,141.303321,96_01,,0,
96_02,,七百,,40.64071,141.303428,96_02,,0,
97_01,,根古橋,,40.642849,141.318977,97_01,,0,
97_02,,根古橋,,40.64279,141.318593,97_02,,0,
98_01,,たての台団地入口,,40.642679,141.322317,98_01,,0,
98_02,,たての台団地入口,,40.642626,141.32232,98_02,,0,
99_01,,柳沢,,40.642481,141.326143,99_01,,0,
99_02,,柳沢,,40.642118,141.325611,99_02,,0,
99_03,,柳沢,,40.642441,141.325831,99_03,,0,
